{
  "type": "FeatureCollection",
  "generator": "overpass-turbo",
  "copyright": "The data included in this document is from www.openstreetmap.org. The data is made available under ODbL.",
  "timestamp": "2016-01-27T20:32:02Z",
  "features": [
    {
      "type": "Feature",
      "id": "node/175683474",
      "properties": {
        "@id": "node/175683474",
        "admin_level": "4",
        "alt_name_2": "Granado",
        "capital": "4",
        "is_in:country": "Nicaragua",
        "is_in:state": "Granada",
        "name": "Granada",
        "place": "city",
        "population": "105171",
        "postal_code": "43000",
        "wikidata": "Q205648",
        "wikipedia": "en:Granada, Nicaragua"
      },
      "geometry": {
        "type": "Point",
        "coordinates": [
          -85.9587686,
          11.9347295
        ]
      }
    },
    {
      "type": "Feature",
      "id": "node/175699213",
      "properties": {
        "@id": "node/175699213",
        "admin_level": "2",
        "capital": "yes",
        "is_in": "Nicaragua",
        "is_in:continent": "Central America",
        "is_in:country": "Nicaragua",
        "is_in:country_code": "NI",
        "is_in:state": "Managua",
        "name": "Managua",
        "name:am": "ማናጓ",
        "name:ar": "ماناغوا",
        "name:az": "Manaqua",
        "name:be": "Манагуа",
        "name:be-tarask": "Манагуа",
        "name:bg": "Манагуа",
        "name:bo": "མ་ན་གུ་འ།",
        "name:de": "Managua",
        "name:el": "Μανάγκουα",
        "name:eo": "Managvo",
        "name:fa": "ماناگوآ",
        "name:fy": "Managûa",
        "name:he": "מנגואה",
        "name:ht": "Managoua",
        "name:hu": "Managua",
        "name:hy": "Մանագուա",
        "name:is": "Managva",
        "name:ja": "マナグア",
        "name:ka": "მანაგუა",
        "name:ko": "마나과",
        "name:lt": "Managva",
        "name:lv": "Managva",
        "name:mk": "Манагва",
        "name:mn": "Манагуа",
        "name:mr": "मानाग्वा",
        "name:nah": "Mānāhuac",
        "name:os": "Манагуæ",
        "name:pt": "Manágua",
        "name:ru": "Манагуа",
        "name:sah": "Манагуа",
        "name:sr": "Манагва",
        "name:sv": "Managua",
        "name:ta": "மனாகுவா",
        "name:th": "มานากัว",
        "name:ug": "ماناگۇئا",
        "name:uk": "Манагуа",
        "name:ur": "ماناگوا",
        "name:zh": "馬那瓜",
        "place": "city",
        "ref:LOCODE": "NIMGA",
        "wikipedia": "de:Managua"
      },
      "geometry": {
        "type": "Point",
        "coordinates": [
          -86.273717,
          12.1461244
        ]
      }
    },
    {
      "type": "Feature",
      "id": "node/175858850",
      "properties": {
        "@id": "node/175858850",
        "is_in": "Nicaragua",
        "name": "Catarina",
        "place": "town"
      },
      "geometry": {
        "type": "Point",
        "coordinates": [
          -86.0742947,
          11.910392
        ]
      }
    },
    {
      "type": "Feature",
      "id": "node/175896610",
      "properties": {
        "@id": "node/175896610",
        "admin_level": "4",
        "capital": "4",
        "is_in:country": "Nicaragua",
        "is_in:state": "Rivas",
        "name": "Rivas",
        "name:hu": "Rivas",
        "place": "city",
        "population": "42375",
        "postal_code": "47000",
        "wikidata": "Q1757609",
        "wikipedia": "es:Rivas (Nicaragua)",
        "wikipedia:en": "Rivas, Nicaragua"
      },
      "geometry": {
        "type": "Point",
        "coordinates": [
          -85.8287394,
          11.4389392
        ]
      }
    },
    {
      "type": "Feature",
      "id": "node/175896762",
      "properties": {
        "@id": "node/175896762",
        "admin_level": "6",
        "is_in": "Isla De Ometepe, Rivas, Nicaragua",
        "is_in:country": "Nicaragua",
        "is_in:state": "Rivas",
        "name": "Moyogalpa",
        "place": "town",
        "population": "11567",
        "postal_code": "48700",
        "ufi": "-1113460",
        "wikidata": "Q2215641",
        "wikipedia": "en:Moyogalpa"
      },
      "geometry": {
        "type": "Point",
        "coordinates": [
          -85.6979365,
          11.5400817
        ]
      }
    },
    {
      "type": "Feature",
      "id": "node/177530724",
      "properties": {
        "@id": "node/177530724",
        "admin_level": "6",
        "is_in": "Isla De Ometepe, Rivas, Nicaragua",
        "is_in:country": "Nicaragua",
        "is_in:state": "Rivas",
        "name": "Altagracia",
        "place": "town",
        "population": "19955",
        "postal_code": "48800",
        "wikipedia": "en:Altagracia"
      },
      "geometry": {
        "type": "Point",
        "coordinates": [
          -85.5788054,
          11.5659828
        ]
      }
    },
    {
      "type": "Feature",
      "id": "node/181383316",
      "properties": {
        "@id": "node/181383316",
        "alt_name": "SJDS",
        "is_in": "Nicaragua",
        "is_in:country": "Nicaragua",
        "is_in:state": "Rivas",
        "name": "San Juan del Sur",
        "name:hu": "San Juan Del Sur",
        "place": "town",
        "population": "14741",
        "postal_code": "48600",
        "wikidata": "Q240247",
        "wikipedia": "es:San Juan del Sur"
      },
      "geometry": {
        "type": "Point",
        "coordinates": [
          -85.8709492,
          11.2536716
        ]
      }
    },
    {
      "type": "Feature",
      "id": "node/183802852",
      "properties": {
        "@id": "node/183802852",
        "is_in": "Nicaragua",
        "name": "v",
        "place": "town"
      },
      "geometry": {
        "type": "Point",
        "coordinates": [
          -85.759357,
          11.372359
        ]
      }
    },
    {
      "type": "Feature",
      "id": "node/183802856",
      "properties": {
        "@id": "node/183802856",
        "is_in": "Nicaragua",
        "name": "Sapoá",
        "place": "village"
      },
      "geometry": {
        "type": "Point",
        "coordinates": [
          -85.626916,
          11.2472194
        ]
      }
    },
    {
      "type": "Feature",
      "id": "node/287179524",
      "properties": {
        "@id": "node/287179524",
        "is_in:country": "Nicaragua",
        "name": "San Benito",
        "place": "village"
      },
      "geometry": {
        "type": "Point",
        "coordinates": [
          -86.0556114,
          12.3100693
        ]
      }
    },
    {
      "type": "Feature",
      "id": "node/287253963",
      "properties": {
        "@id": "node/287253963",
        "admin_level": "6",
        "is_in:country": "Nicaragua",
        "is_in:state": "Managua",
        "name": "El Crucero",
        "place": "town",
        "population": "15139",
        "postal_code": "16100",
        "wikidata": "Q2605353",
        "wikipedia": "es:El_Crucero_(Nicaragua)"
      },
      "geometry": {
        "type": "Point",
        "coordinates": [
          -86.3063715,
          11.9933986
        ]
      }
    },
    {
      "type": "Feature",
      "id": "node/290862240",
      "properties": {
        "@id": "node/290862240",
        "is_in:country": "Nicaragua",
        "is_in:state": "León",
        "name": "Nagarote",
        "note": "was Nagorote in GNS dataset. Simply wrong? (Didn't add as an alt_name)",
        "old_name": "Nagrando",
        "place": "town",
        "population": "32303",
        "postal_code": "22200",
        "source": "USGS, 2013-07-19; NGA",
        "ufi": "-1113506",
        "wikidata": "Q2604568",
        "wikipedia": "es:Nagarote"
      },
      "geometry": {
        "type": "Point",
        "coordinates": [
          -86.5637876,
          12.264787
        ]
      }
    },
    {
      "type": "Feature",
      "id": "node/290862597",
      "properties": {
        "@id": "node/290862597",
        "is_in": "Nicaragua",
        "is_in:country": "Nicaragua",
        "is_in:state": "León",
        "name": "La Paz Centro",
        "old_name": "Villa de La Paz",
        "place": "town",
        "postal_code": "22100",
        "short_name": "La Paz",
        "wikidata": "Q2604553",
        "wikipedia": "es:La_Paz_Centro"
      },
      "geometry": {
        "type": "Point",
        "coordinates": [
          -86.6763308,
          12.3397
        ]
      }
    },
    {
      "type": "Feature",
      "id": "node/290863561",
      "properties": {
        "@id": "node/290863561",
        "is_in": "Nicaragua",
        "name": "Puerto Sandino",
        "place": "village"
      },
      "geometry": {
        "type": "Point",
        "coordinates": [
          -86.7603334,
          12.1953517
        ]
      }
    },
    {
      "type": "Feature",
      "id": "node/291471414",
      "properties": {
        "@id": "node/291471414",
        "is_in": "Nicaragua",
        "name": "Tipitapa",
        "place": "town"
      },
      "geometry": {
        "type": "Point",
        "coordinates": [
          -86.096372,
          12.1962432
        ]
      }
    },
    {
      "type": "Feature",
      "id": "node/293298496",
      "properties": {
        "@id": "node/293298496",
        "admin_level": "4",
        "capital": "4",
        "is_in:country": "Nicaragua",
        "is_in:state": "León",
        "name": "León",
        "name:hu": "León",
        "name:ru": "Леон",
        "name:uk": "Леон",
        "official_name": "Santiago de los Caballeros de León",
        "place": "city",
        "population": "184041",
        "postal_code": "21000",
        "wikidata": "Q208151",
        "wikipedia": "es:León_(Nicaragua)"
      },
      "geometry": {
        "type": "Point",
        "coordinates": [
          -86.8773498,
          12.4345376
        ]
      }
    },
    {
      "type": "Feature",
      "id": "node/302260821",
      "properties": {
        "@id": "node/302260821",
        "admin_level": "4",
        "capital": "4",
        "is_in:country": "Nicaragua",
        "is_in:state": "Neuva Segovia",
        "loc_name": "La Sultana del Norte",
        "name": "Ocotal",
        "place": "city",
        "population": "41875",
        "postal_code": "37000",
        "reg_name": "Ciudad de los Pinos",
        "ufi": "-1113583",
        "wikipedia": "es:Ocotal"
      },
      "geometry": {
        "type": "Point",
        "coordinates": [
          -86.476387,
          13.6333171
        ]
      }
    },
    {
      "type": "Feature",
      "id": "node/302260982",
      "properties": {
        "@id": "node/302260982",
        "is_in:country": "Nicaragua",
        "is_in:state": "Madriz",
        "name": "Totogalpa",
        "old_name": "Santa María Magdalena de Nueva Segovia",
        "place": "town",
        "population": "11927",
        "postal_code": "35300",
        "website": "www.totogalpa.gob.ni",
        "wikipedia": "es:Totogalpa"
      },
      "geometry": {
        "type": "Point",
        "coordinates": [
          -86.4926672,
          13.5631488
        ]
      }
    },
    {
      "type": "Feature",
      "id": "node/302261828",
      "properties": {
        "@id": "node/302261828",
        "admin_level": "4",
        "capital": "4",
        "is_in:country": "Nicaragua",
        "is_in:state": "Estelí",
        "name": "Estelí",
        "name:en": "Esteli",
        "name:hu": "Estelí",
        "old_name": "Villa de San Antonio de Pavía de Estelí",
        "place": "city",
        "population": "133709",
        "postal_code": "31000",
        "website": "www.alcaldiaesteli.gob.ni",
        "wikipedia": "es:Estelí"
      },
      "geometry": {
        "type": "Point",
        "coordinates": [
          -86.3546423,
          13.0900805
        ]
      }
    },
    {
      "type": "Feature",
      "id": "node/302349597",
      "properties": {
        "@id": "node/302349597",
        "admin_level": "6",
        "is_in:country": "Nicaragua",
        "is_in:state": "Matagalpa",
        "loc_name": "Sébaco de La Asunción",
        "name": "Sébaco",
        "name:en": "Sebaco",
        "old_name": "Nuevo Sébaco de La Asunción",
        "place": "town",
        "population": "35341",
        "postal_code": "62200",
        "wikidata": "Q2605377",
        "wikipedia": "es:Sébaco"
      },
      "geometry": {
        "type": "Point",
        "coordinates": [
          -86.0984571,
          12.8549457
        ]
      }
    },
    {
      "type": "Feature",
      "id": "node/302349911",
      "properties": {
        "@id": "node/302349911",
        "admin_level": "4",
        "capital": "4",
        "is_in": "Nicaragua",
        "is_in:country": "Nicaragua",
        "is_in:state": "Matagalpa",
        "name": "Matagalpa",
        "name:hu": "Matagalpa",
        "place": "city",
        "postal_code": "61000",
        "website": "http://mimatagalpa.org/",
        "wikidata": "Q596688",
        "wikipedia": "es:Matagalpa"
      },
      "geometry": {
        "type": "Point",
        "coordinates": [
          -85.918418,
          12.9230686
        ]
      }
    },
    {
      "type": "Feature",
      "id": "node/302360059",
      "properties": {
        "@id": "node/302360059",
        "admin_level": "6",
        "is_in:country": "Nicaragua",
        "is_in:state": "Matagalpa",
        "name": "Matiguás",
        "place": "town",
        "population": "8907",
        "postal_code": "63100",
        "source": "NGA 50k topo maps",
        "wikidata": "Q2215416",
        "wikipedia": "es:Matiguás"
      },
      "geometry": {
        "type": "Point",
        "coordinates": [
          -85.4607846,
          12.8367992
        ]
      }
    },
    {
      "type": "Feature",
      "id": "node/302360137",
      "properties": {
        "@id": "node/302360137",
        "admin_level": "6",
        "alt_name": "Muymuy",
        "is_in:country": "Nicaragua",
        "is_in:state": "Matagalpa",
        "name": "Muy Muy",
        "place": "town",
        "population": "4037",
        "postal_code": "62600",
        "wikipedia": "es:Muy_Muy"
      },
      "geometry": {
        "type": "Point",
        "coordinates": [
          -85.6277278,
          12.7603475
        ]
      }
    },
    {
      "type": "Feature",
      "id": "node/302360314",
      "properties": {
        "@id": "node/302360314",
        "admin_level": "6",
        "is_in:country": "Nicaragua",
        "is_in:state": "Boaco",
        "loc_name": "Los Remates",
        "name": "San José de Los Remates",
        "place": "town",
        "population": "1763",
        "postal_code": "52500",
        "wikidata": "Q2215558",
        "wikipedia": "es:San_José_de_Los_Remates"
      },
      "geometry": {
        "type": "Point",
        "coordinates": [
          -85.7623103,
          12.5962296
        ]
      }
    },
    {
      "type": "Feature",
      "id": "node/302360539",
      "properties": {
        "@id": "node/302360539",
        "admin_level": "6",
        "is_in:country": "Nicaragua",
        "is_in:state": "Boaco",
        "name": "Teustepe",
        "place": "town",
        "postal_code": "52300",
        "wikidata": "Q2216040",
        "wikipedia": "es:Teustepe"
      },
      "geometry": {
        "type": "Point",
        "coordinates": [
          -85.7973285,
          12.4192483
        ]
      }
    },
    {
      "type": "Feature",
      "id": "node/302360810",
      "properties": {
        "@id": "node/302360810",
        "admin_level": "6",
        "is_in:country": "Nicaragua",
        "is_in:state": "Managua",
        "name": "Esquipulas",
        "place": "town",
        "population": "3500",
        "postal_code": "62500",
        "wikipedia": "es:Esquipulas_(Nicaragua)"
      },
      "geometry": {
        "type": "Point",
        "coordinates": [
          -85.7873557,
          12.6642376
        ]
      }
    },
    {
      "type": "Feature",
      "id": "node/302360985",
      "properties": {
        "@id": "node/302360985",
        "name": "Las Maderas",
        "place": "village"
      },
      "geometry": {
        "type": "Point",
        "coordinates": [
          -86.0411532,
          12.4455841
        ]
      }
    },
    {
      "type": "Feature",
      "id": "node/302361532",
      "properties": {
        "@id": "node/302361532",
        "admin_level": "6",
        "alt_name": "Metapa",
        "is_in": "Nicaragua",
        "name": "Ciudad Darío",
        "name:en": "Ciudad Dario",
        "old_name": "San Pedro de Metapa",
        "place": "town",
        "population": "16646",
        "postal_code": "62800",
        "reg_name": "Metlalpán",
        "wikipedia": "es:Ciudad_Darío"
      },
      "geometry": {
        "type": "Point",
        "coordinates": [
          -86.1245112,
          12.7318879
        ]
      }
    },
    {
      "type": "Feature",
      "id": "node/302362469",
      "properties": {
        "@id": "node/302362469",
        "is_in:country": "Nicaragua",
        "is_in:state": "León",
        "name": "El Sauce",
        "old_name": "Valle del Guayabal",
        "place": "town",
        "population": "30707",
        "postal_code": "22800",
        "wikidata": "Q1647835",
        "wikipedia": "es:El_Sauce_(Nicaragua)"
      },
      "geometry": {
        "type": "Point",
        "coordinates": [
          -86.5399318,
          12.8862148
        ]
      }
    },
    {
      "type": "Feature",
      "id": "node/302364502",
      "properties": {
        "@id": "node/302364502",
        "is_in:country": "Nicaragua",
        "is_in:state": "Chinandega",
        "name": "El Viejo",
        "place": "town",
        "population": "33607",
        "postal_code": "26200",
        "website": "http://www.manfut.org/chinandega/viejo.html",
        "wikidata": "Q516482",
        "wikipedia": "es:El_Viejo"
      },
      "geometry": {
        "type": "Point",
        "coordinates": [
          -87.1702626,
          12.6632331
        ]
      }
    },
    {
      "type": "Feature",
      "id": "node/302364713",
      "properties": {
        "@id": "node/302364713",
        "admin_level": "4",
        "capital": "4",
        "is_in": "Nicaragua",
        "is_in:state": "Chinandega",
        "name": "Chinandega",
        "name:hu": "Chinandega",
        "name:ru": "Чинандега",
        "place": "city",
        "population": "121793",
        "postal_code": "25000",
        "website": "https://es.wikipedia.org/wiki/Chinandega",
        "wikidata": "Q974354",
        "wikipedia": "es:Chinandega"
      },
      "geometry": {
        "type": "Point",
        "coordinates": [
          -87.1297505,
          12.6277237
        ]
      }
    },
    {
      "type": "Feature",
      "id": "node/302364870",
      "properties": {
        "@id": "node/302364870",
        "admin_level": "6",
        "is_in:country": "Nicaragua",
        "is_in:state": "Chinandega",
        "name": "Chichigalpa",
        "place": "town",
        "population": "49793",
        "postal_code": "26100",
        "ufi": "-1110622",
        "wikidata": "Q1072117",
        "wikipedia": "es:Chichigalpa"
      },
      "geometry": {
        "type": "Point",
        "coordinates": [
          -87.026067,
          12.5721046
        ]
      }
    },
    {
      "type": "Feature",
      "id": "node/302365015",
      "properties": {
        "@id": "node/302365015",
        "addr:postcode": "26100",
        "name": "San Antonio",
        "place": "village",
        "website": "http://www.nicaraguasugar.com/"
      },
      "geometry": {
        "type": "Point",
        "coordinates": [
          -87.0453067,
          12.5325535
        ]
      }
    },
    {
      "type": "Feature",
      "id": "node/302367577",
      "properties": {
        "@id": "node/302367577",
        "admin_level": "6",
        "is_in:country": "Nicaragua",
        "is_in:state": "Río San Juan",
        "name": "El Almendro",
        "place": "town",
        "population": "2792",
        "postal_code": "92300",
        "source": "INETER 1:50k map, No. 3251ii",
        "wikidata": "Q2621532",
        "wikipedia": "es:El_Almendro_(Nicaragua)"
      },
      "geometry": {
        "type": "Point",
        "coordinates": [
          -84.7027254,
          11.6777206
        ]
      }
    },
    {
      "type": "Feature",
      "id": "node/302367892",
      "properties": {
        "@id": "node/302367892",
        "admin_level": "6",
        "is_in:country": "Nicaragua",
        "is_in:state": "Chontales",
        "name": "Acoyapa",
        "old_name": "Apoyanh",
        "place": "town",
        "population": "8108",
        "wikidata": "Q1186803",
        "wikipedia": "es:Acoyapa"
      },
      "geometry": {
        "type": "Point",
        "coordinates": [
          -85.1717974,
          11.9705881
        ]
      }
    },
    {
      "type": "Feature",
      "id": "node/302522652",
      "properties": {
        "@id": "node/302522652",
        "admin_level": "6",
        "is_in": "Nicaragua",
        "is_in:country": "Nicaragua",
        "is_in:state": "Masaya",
        "name": "Masatepe",
        "place": "town",
        "population": "31583",
        "postal_code": "42600",
        "wikipedia": "es:Masatepe"
      },
      "geometry": {
        "type": "Point",
        "coordinates": [
          -86.14487,
          11.9144808
        ]
      }
    },
    {
      "type": "Feature",
      "id": "node/302522720",
      "properties": {
        "@id": "node/302522720",
        "admin_level": "6",
        "is_in:country": "Nicaragua",
        "is_in:state": "Carazo",
        "name": "San Marcos",
        "place": "town",
        "population": "29019",
        "postal_code": "26400",
        "wikipedia": "es:San Marcos (Nicaragua)"
      },
      "geometry": {
        "type": "Point",
        "coordinates": [
          -86.2039127,
          11.9078004
        ]
      }
    },
    {
      "type": "Feature",
      "id": "node/302523195",
      "properties": {
        "@id": "node/302523195",
        "admin_level": "6",
        "is_in": "Nicaragua",
        "is_in:country": "Nicaragua",
        "is_in:state": "Masaya",
        "name": "Niquinohomo",
        "place": "town",
        "population": "14847",
        "postal_code": "42700",
        "wikipedia": "es:Niquinohomo"
      },
      "geometry": {
        "type": "Point",
        "coordinates": [
          -86.0945522,
          11.9041582
        ]
      }
    },
    {
      "type": "Feature",
      "id": "node/302523440",
      "properties": {
        "@id": "node/302523440",
        "admin_level": "4",
        "capital": "4",
        "is_in:country": "Nicaragua",
        "is_in:state": "Carazo",
        "name": "Jinotepe",
        "name:en": "Jinotepe",
        "name:hu": "Jinotepe",
        "name:ru": "Хинотепе",
        "place": "city",
        "postal_code": "45000",
        "website": "http://www.manfut.org/carazo/jinotepe.html",
        "wikipedia": "en:Jinotepe,_Carazo"
      },
      "geometry": {
        "type": "Point",
        "coordinates": [
          -86.1990863,
          11.8471433
        ]
      }
    },
    {
      "type": "Feature",
      "id": "node/302523896",
      "properties": {
        "@id": "node/302523896",
        "is_in:country": "Nicaragua",
        "is_in:state": "León",
        "name": "Telica",
        "place": "town",
        "population": "23266",
        "postal_code": "22400",
        "ufi": "-1114944",
        "wikidata": "Q1647817",
        "wikipedia": "es:Telica"
      },
      "geometry": {
        "type": "Point",
        "coordinates": [
          -86.8592739,
          12.5207103
        ]
      }
    },
    {
      "type": "Feature",
      "id": "node/302524295",
      "properties": {
        "@id": "node/302524295",
        "admin_level": "6",
        "is_in:country": "Nicaragua",
        "is_in:state": "Jinotega",
        "name": "La Concordia",
        "place": "town",
        "population": "6468",
        "source": "NGA 1:50k maps Nicaragua",
        "wikipedia": "es:La_Concordia_(Nicaragua)"
      },
      "geometry": {
        "type": "Point",
        "coordinates": [
          -86.1660265,
          13.1956918
        ]
      }
    },
    {
      "type": "Feature",
      "id": "node/302524388",
      "properties": {
        "@id": "node/302524388",
        "admin_level": "6",
        "is_in:country": "Nicaragua",
        "is_in:state": "Jinotega",
        "name": "San Rafael del Norte",
        "place": "town",
        "population": "17789",
        "postal_code": "66100",
        "wikidata": "Q2604700",
        "wikipedia": "es:San_Rafael_del_Norte"
      },
      "geometry": {
        "type": "Point",
        "coordinates": [
          -86.1097507,
          13.2140568
        ]
      }
    },
    {
      "type": "Feature",
      "id": "node/302524561",
      "properties": {
        "@id": "node/302524561",
        "is_in:country": "Nicaragua",
        "is_in:state": "Jinotega",
        "name": "San Sebastián de Yalí",
        "place": "town",
        "population": "26979",
        "wikipedia": "es:San_Sebastián_de_Yalí"
      },
      "geometry": {
        "type": "Point",
        "coordinates": [
          -86.1853079,
          13.3046852
        ]
      }
    },
    {
      "type": "Feature",
      "id": "node/302524590",
      "properties": {
        "@id": "node/302524590",
        "is_in:country": "Nicaragua",
        "is_in:state": "Estelí",
        "name": "Condega",
        "place": "town",
        "population": "28481",
        "postal_code": "32100",
        "ufi": "-1110714"
      },
      "geometry": {
        "type": "Point",
        "coordinates": [
          -86.3983285,
          13.3608275
        ]
      }
    },
    {
      "type": "Feature",
      "id": "node/302524717",
      "properties": {
        "@id": "node/302524717",
        "admin_level": "6",
        "alt_name": "Palacaguina",
        "is_in:country": "Nicaragua",
        "is_in:state": "Madriz",
        "name": "Palacagüina",
        "place": "town",
        "population": "12825",
        "postal_code": "35200",
        "website": "www.alcaldiapalacaguina.gob.ni",
        "wikipedia": "es:Palacagüina"
      },
      "geometry": {
        "type": "Point",
        "coordinates": [
          -86.4050391,
          13.4549962
        ]
      }
    },
    {
      "type": "Feature",
      "id": "node/302524775",
      "properties": {
        "@id": "node/302524775",
        "is_in": "Nicaragua",
        "loc_name": "Nuestro Señor de los Milagros de Ciudad Antigua",
        "name": "Ciudad Antigua",
        "old_name": "Ciudad Vieja",
        "place": "town",
        "population": "1279",
        "postal_code": "38400",
        "source": "NGA 1:50k maps Nicaragua",
        "wikipedia": "es:Ciudad_Antigua"
      },
      "geometry": {
        "type": "Point",
        "coordinates": [
          -86.3083267,
          13.6406885
        ]
      }
    },
    {
      "type": "Feature",
      "id": "node/302524794",
      "properties": {
        "@id": "node/302524794",
        "is_in:country": "Nicaragua",
        "is_in:state": "Neuva Segovia",
        "name": "San Fernando",
        "place": "town",
        "population": "8549",
        "wikipedia": "es:San_Fernando_(Nicaragua)"
      },
      "geometry": {
        "type": "Point",
        "coordinates": [
          -86.3137149,
          13.675926
        ]
      }
    },
    {
      "type": "Feature",
      "id": "node/302549038",
      "properties": {
        "@id": "node/302549038",
        "alt_name": "Monsonte",
        "is_in:country": "Nicaragua",
        "is_in:state": "Neuva Segovia",
        "name": "Monzonte",
        "name:ca": "Mosuntepec",
        "old_name": "Mosuntepec",
        "place": "town",
        "population": "6795",
        "postal_code": "38100"
      },
      "geometry": {
        "type": "Point",
        "coordinates": [
          -86.4388797,
          13.6600488
        ]
      }
    },
    {
      "type": "Feature",
      "id": "node/302551466",
      "properties": {
        "@id": "node/302551466",
        "is_in:country": "Nicaragua",
        "is_in:state": "Chinandega",
        "name": "Somotillo",
        "place": "town",
        "population": "13290",
        "postal_code": "26800",
        "wikidata": "Q2604179",
        "wikipedia": "es:Somotillo"
      },
      "geometry": {
        "type": "Point",
        "coordinates": [
          -86.9050544,
          13.0445947
        ]
      }
    },
    {
      "type": "Feature",
      "id": "node/302551979",
      "properties": {
        "@id": "node/302551979",
        "is_in:country": "Nicaragua",
        "is_in:state": "Chinandega",
        "name": "Villanueva",
        "place": "town",
        "population": "27036",
        "postal_code": "26700",
        "wikipedia": "es:Villanueva_(Nicaragua)"
      },
      "geometry": {
        "type": "Point",
        "coordinates": [
          -86.8161338,
          12.9659834
        ]
      }
    },
    {
      "type": "Feature",
      "id": "node/302560927",
      "properties": {
        "@id": "node/302560927",
        "is_in:country": "Nicaragua",
        "is_in:state": "Carazo",
        "name": "Dolores",
        "place": "town",
        "postal_code": "46100",
        "wikipedia": "es:Dolores_(Nicaragua)"
      },
      "geometry": {
        "type": "Point",
        "coordinates": [
          -86.2141546,
          11.8570098
        ]
      }
    },
    {
      "type": "Feature",
      "id": "node/302562439",
      "properties": {
        "@id": "node/302562439",
        "admin_level": "6",
        "is_in:country": "Nicaragua",
        "is_in:state": "Carazo",
        "name": "Santa Teresa",
        "old_name": "Villa de Santa Teresa",
        "place": "town",
        "population": "16891",
        "postal_code": "46600",
        "ufi": "-1114668",
        "website": "http://www.manfut.org/carazo/teresa.html",
        "wikipedia": "es:Santa_Teresa_(Nicaragua)"
      },
      "geometry": {
        "type": "Point",
        "coordinates": [
          -86.1633428,
          11.8030769
        ]
      }
    },
    {
      "type": "Feature",
      "id": "node/302563026",
      "properties": {
        "@id": "node/302563026",
        "created_by": "Potlatch 0.10d",
        "is_in": "Nicaragua",
        "name": "Nandaime",
        "place": "town"
      },
      "geometry": {
        "type": "Point",
        "coordinates": [
          -86.0526212,
          11.7560239
        ]
      }
    },
    {
      "type": "Feature",
      "id": "node/303474004",
      "properties": {
        "@id": "node/303474004",
        "admin_level": "4",
        "capital": "4",
        "is_in": "Nicaragua",
        "is_in:state": "Río San Juan",
        "name": "San Carlos",
        "name:hu": "San Carlos",
        "name:ka": "სან-კარლოსი",
        "name:lt": "San Karlosas",
        "name:ru": "Сан-Карлос",
        "name:zh": "聖卡洛斯",
        "place": "city",
        "population": "12174",
        "postal_code": "91000",
        "wikidata": "Q1020320",
        "wikipedia": "es:San Carlos (Nicaragua)"
      },
      "geometry": {
        "type": "Point",
        "coordinates": [
          -84.7778379,
          11.1235301
        ]
      }
    },
    {
      "type": "Feature",
      "id": "node/303916339",
      "properties": {
        "@id": "node/303916339",
        "admin_level": "6",
        "is_in:state": "Madriz",
        "name": "Telpaneca",
        "place": "town",
        "population": "19025",
        "postal_code": "35700",
        "wikipedia": "es:Telpaneca"
      },
      "geometry": {
        "type": "Point",
        "coordinates": [
          -86.2867641,
          13.5314044
        ]
      }
    },
    {
      "type": "Feature",
      "id": "node/303919077",
      "properties": {
        "@id": "node/303919077",
        "admin_level": "6",
        "name": "Wiwilí de Nueva Segovia",
        "place": "town",
        "source": "Bing; USGS, 2013-07-19; NGA",
        "wikipedia": "en:Wiwilí"
      },
      "geometry": {
        "type": "Point",
        "coordinates": [
          -85.825238,
          13.6259286
        ]
      }
    },
    {
      "type": "Feature",
      "id": "node/303919120",
      "properties": {
        "@id": "node/303919120",
        "admin_level": "6",
        "name": "Quilalí",
        "old_name": "Quilaztli",
        "place": "town",
        "population": "26297",
        "postal_code": "38700",
        "ufi": "-1111201",
        "wikipedia": "es:Quilalí"
      },
      "geometry": {
        "type": "Point",
        "coordinates": [
          -86.0272147,
          13.5676202
        ]
      }
    },
    {
      "type": "Feature",
      "id": "node/303930749",
      "properties": {
        "@id": "node/303930749",
        "name": "Sabana Grande",
        "place": "hamlet"
      },
      "geometry": {
        "type": "Point",
        "coordinates": [
          -86.4817023,
          13.5285267
        ]
      }
    },
    {
      "type": "Feature",
      "id": "node/303932621",
      "properties": {
        "@id": "node/303932621",
        "name": "La Culebra",
        "place": "village"
      },
      "geometry": {
        "type": "Point",
        "coordinates": [
          -86.6958174,
          13.4275842
        ]
      }
    },
    {
      "type": "Feature",
      "id": "node/303933173",
      "properties": {
        "@id": "node/303933173",
        "is_in:country": "Nicaragua",
        "is_in:state": "Neuva Segovia",
        "name": "Santa Clara",
        "place": "village"
      },
      "geometry": {
        "type": "Point",
        "coordinates": [
          -86.2583209,
          13.7073983
        ]
      }
    },
    {
      "type": "Feature",
      "id": "node/303953079",
      "properties": {
        "@id": "node/303953079",
        "admin_level": "6",
        "alt_name": "Ciudad Sandino",
        "is_in": "Nicaragua",
        "name": "El Jícaro",
        "place": "town",
        "population": "25901",
        "postal_code": "38800",
        "ufi": "-1110664",
        "wikipedia": "es:El_Jícaro_(Nicaragua)"
      },
      "geometry": {
        "type": "Point",
        "coordinates": [
          -86.1347152,
          13.7224767
        ]
      }
    },
    {
      "type": "Feature",
      "id": "node/303953837",
      "properties": {
        "@id": "node/303953837",
        "name": "Susucayán",
        "place": "village"
      },
      "geometry": {
        "type": "Point",
        "coordinates": [
          -86.1707065,
          13.6743518
        ]
      }
    },
    {
      "type": "Feature",
      "id": "node/303976051",
      "properties": {
        "@id": "node/303976051",
        "addr:postcode": "2400",
        "name": "San Jacinto",
        "place": "village"
      },
      "geometry": {
        "type": "Point",
        "coordinates": [
          -86.7772367,
          12.580767
        ]
      }
    },
    {
      "type": "Feature",
      "id": "node/303980155",
      "properties": {
        "@id": "node/303980155",
        "admin_level": "6",
        "is_in:country": "Nicaragua",
        "is_in:region": "Municipio Larreynaga",
        "is_in:state": "Chinandega",
        "name": "Malpaisillo",
        "place": "town",
        "population": "27898",
        "postal_code": "22500",
        "wikidata": "Q11141698",
        "wikipedia": "es:Malpaisillo"
      },
      "geometry": {
        "type": "Point",
        "coordinates": [
          -86.6777281,
          12.5950247
        ]
      }
    },
    {
      "type": "Feature",
      "id": "node/304199405",
      "properties": {
        "@id": "node/304199405",
        "admin_level": "6",
        "is_in:country": "Nicaragua",
        "is_in:state": "Río San Juan",
        "name": "San Miguelito",
        "place": "town",
        "population": "2807",
        "postal_code": "92100",
        "wikidata": "Q1015364",
        "wikipedia": "es:San_Miguelito_(Nicaragua)"
      },
      "geometry": {
        "type": "Point",
        "coordinates": [
          -84.900003,
          11.4024041
        ]
      }
    },
    {
      "type": "Feature",
      "id": "node/304199947",
      "properties": {
        "@id": "node/304199947",
        "name": "Laurel Galán",
        "place": "village",
        "source": "INETER 1:50k map, No. 3249i"
      },
      "geometry": {
        "type": "Point",
        "coordinates": [
          -84.7420491,
          11.1950256
        ]
      }
    },
    {
      "type": "Feature",
      "id": "node/304202993",
      "properties": {
        "@id": "node/304202993",
        "name": "La Palma",
        "place": "village"
      },
      "geometry": {
        "type": "Point",
        "coordinates": [
          -85.2608489,
          12.0311146
        ]
      }
    },
    {
      "type": "Feature",
      "id": "node/304204033",
      "properties": {
        "@id": "node/304204033",
        "alt_name": "Morrito",
        "is_in:country": "Nicaragua",
        "is_in:state": "Río San Juan",
        "name": "Puerto Morrito",
        "place": "town",
        "population": "2325",
        "postal_code": "92400",
        "wikidata": "Q2621523",
        "wikipedia": "es:Morrito"
      },
      "geometry": {
        "type": "Point",
        "coordinates": [
          -85.0808351,
          11.6218378
        ]
      }
    },
    {
      "type": "Feature",
      "id": "node/304247102",
      "properties": {
        "@id": "node/304247102",
        "admin_level": "6",
        "is_in:country": "Nicaragua",
        "is_in:state": "Boaco",
        "name": "Santa Lucía",
        "name:en": "Santa Lucia",
        "place": "town",
        "population": "2046",
        "postal_code": "52200",
        "wikidata": "Q1647681",
        "wikipedia": "es:Santa_Lucía_(Nicaragua)"
      },
      "geometry": {
        "type": "Point",
        "coordinates": [
          -85.7110608,
          12.5320577
        ]
      }
    },
    {
      "type": "Feature",
      "id": "node/304247120",
      "properties": {
        "@id": "node/304247120",
        "admin_level": "4",
        "capital": "4",
        "is_in:country": "Nicaragua",
        "is_in:state": "Boaco",
        "loc_name": "La ciudad de dos pisos",
        "name": "Boaco",
        "name:hu": "Boaco",
        "name:ru": "Боако",
        "place": "city",
        "postal_code": "51000",
        "wikidata": "Q887488",
        "wikipedia": "es:Boaco"
      },
      "geometry": {
        "type": "Point",
        "coordinates": [
          -85.6583982,
          12.4720295
        ]
      }
    },
    {
      "type": "Feature",
      "id": "node/304247202",
      "properties": {
        "@id": "node/304247202",
        "is_in:country": "Nicaragua",
        "is_in:state": "Boaco",
        "name": "Camoapa",
        "place": "town",
        "population": "13995",
        "postal_code": "52100",
        "wikidata": "Q2605022",
        "wikipedia": "es:Camoapa"
      },
      "geometry": {
        "type": "Point",
        "coordinates": [
          -85.5098729,
          12.3825484
        ]
      }
    },
    {
      "type": "Feature",
      "id": "node/304247222",
      "properties": {
        "@id": "node/304247222",
        "admin_level": "6",
        "is_in:country": "Nicaragua",
        "is_in:state": "Chontales",
        "name": "La Libertad",
        "place": "town",
        "population": "4887",
        "postal_code": "56300",
        "wikidata": "Q2606938",
        "wikipedia": "es:La_Libertad_(Nicaragua)"
      },
      "geometry": {
        "type": "Point",
        "coordinates": [
          -85.1644885,
          12.214819
        ]
      }
    },
    {
      "type": "Feature",
      "id": "node/304247329",
      "properties": {
        "@id": "node/304247329",
        "admin_level": "6",
        "is_in:country": "Nicaragua",
        "is_in:state": "Chontales",
        "name": "Santo Domingo",
        "place": "town",
        "postal_code": "56800",
        "wikidata": "Q1647902",
        "wikipedia": "es:Santo_Domingo_(Nicaragua)"
      },
      "geometry": {
        "type": "Point",
        "coordinates": [
          -85.0820895,
          12.2634608
        ]
      }
    },
    {
      "type": "Feature",
      "id": "node/304247408",
      "properties": {
        "@id": "node/304247408",
        "created_by": "Potlatch 0.10f",
        "name": "San Pedro Del Norte",
        "place": "town"
      },
      "geometry": {
        "type": "Point",
        "coordinates": [
          -84.7391197,
          13.0523205
        ]
      }
    },
    {
      "type": "Feature",
      "id": "node/304247439",
      "properties": {
        "@id": "node/304247439",
        "admin_level": "6",
        "is_in:country": "Nicaragua",
        "is_in:state": "Región Autónoma de la Costa Caribe Sur",
        "name": "El Ayote",
        "place": "town",
        "population": "3921",
        "postal_code": "82800",
        "wikidata": "Q2215912",
        "wikipedia": "es:El_Ayote"
      },
      "geometry": {
        "type": "Point",
        "coordinates": [
          -84.8182138,
          12.495848
        ]
      }
    },
    {
      "type": "Feature",
      "id": "node/304252600",
      "properties": {
        "@id": "node/304252600",
        "admin_level": "6",
        "is_in:country": "Nicaragua",
        "is_in:state": "Región Autónoma de la Costa Caribe Sur",
        "name": "El Tortuguero",
        "place": "town",
        "postal_code": "82700",
        "wikidata": "Q1647883",
        "wikipedia": "es:El_Tortuguero"
      },
      "geometry": {
        "type": "Point",
        "coordinates": [
          -84.19906,
          12.8207859
        ]
      }
    },
    {
      "type": "Feature",
      "id": "node/304326330",
      "properties": {
        "@id": "node/304326330",
        "admin_level": "6",
        "is_in:country": "Nicaragua",
        "is_in:state": "Chontales",
        "name": "Santo Tomás",
        "place": "town",
        "wikidata": "Q542822",
        "wikipedia": "es:Santo_Tomás_(Nicaragua)"
      },
      "geometry": {
        "type": "Point",
        "coordinates": [
          -85.0895482,
          12.0685542
        ]
      }
    },
    {
      "type": "Feature",
      "id": "node/304327799",
      "properties": {
        "@id": "node/304327799",
        "is_in:country": "Nicaragua",
        "is_in:state": "Chontales",
        "name": "Villa Sandino",
        "place": "town",
        "postal_code": "56600",
        "wikidata": "Q2216093",
        "wikipedia": "es:Villa_Sandino"
      },
      "geometry": {
        "type": "Point",
        "coordinates": [
          -84.9928957,
          12.0480653
        ]
      }
    },
    {
      "type": "Feature",
      "id": "node/304334945",
      "properties": {
        "@id": "node/304334945",
        "name": "La Gateada",
        "place": "village"
      },
      "geometry": {
        "type": "Point",
        "coordinates": [
          -84.7786624,
          11.9990398
        ]
      }
    },
    {
      "type": "Feature",
      "id": "node/304335835",
      "properties": {
        "@id": "node/304335835",
        "admin_level": "6",
        "is_in:country": "Nicaragua",
        "is_in:state": "Chontales",
        "name": "El Coral",
        "place": "town",
        "postal_code": "56900",
        "wikidata": "Q2215960",
        "wikipedia": "es:El_Coral_(Nicaragua)"
      },
      "geometry": {
        "type": "Point",
        "coordinates": [
          -84.6482068,
          11.9191108
        ]
      }
    },
    {
      "type": "Feature",
      "id": "node/304338485",
      "properties": {
        "@id": "node/304338485",
        "is_in:country": "Nicaragua",
        "is_in:state": "Chontales",
        "name": "San Pedro de Lóvago",
        "place": "town",
        "population": "3415",
        "postal_code": "56700",
        "wikidata": "Q2215096",
        "wikipedia": "es:San_Pedro_de_Lóvago"
      },
      "geometry": {
        "type": "Point",
        "coordinates": [
          -85.1137525,
          12.1289712
        ]
      }
    },
    {
      "type": "Feature",
      "id": "node/304768864",
      "properties": {
        "@id": "node/304768864",
        "name": "Tonalá",
        "official_name": "Santa Rita de Tonalá",
        "place": "town",
        "postal_code": "26600",
        "source": "NGA maps 1:50k Nicaragua & BingSat",
        "wikidata": "Q2605034",
        "wikipedia": "es:Tonalá_(Nicaragua)"
      },
      "geometry": {
        "type": "Point",
        "coordinates": [
          -87.1325311,
          12.7669084
        ]
      }
    },
    {
      "type": "Feature",
      "id": "node/306243099",
      "properties": {
        "@id": "node/306243099",
        "admin_level": "4",
        "capital": "4",
        "is_in:country": "Nicaragua",
        "is_in:state": "Región Autónoma de la Costa Caribe Norte",
        "name": "Bilwi (Puerto Cabezas)",
        "name:miq": "Bilwi",
        "place": "city",
        "population": "39428",
        "postal_code": "71000",
        "wikidata": "Q1008456",
        "wikipedia": "es:Puerto_Cabezas"
      },
      "geometry": {
        "type": "Point",
        "coordinates": [
          -83.3817598,
          14.0289975
        ]
      }
    },
    {
      "type": "Feature",
      "id": "node/306246928",
      "properties": {
        "@id": "node/306246928",
        "admin_level": "6",
        "alt_name": "Rio Blanco",
        "is_in:country": "Nicaragua",
        "is_in:state": "Matagalpa",
        "name": "Río Blanco",
        "place": "town",
        "population": "12933",
        "postal_code": "63200",
        "wikidata": "Q2605369",
        "wikipedia": "es:Río_Blanco_(Nicaragua)"
      },
      "geometry": {
        "type": "Point",
        "coordinates": [
          -85.2229269,
          12.9292023
        ]
      }
    },
    {
      "type": "Feature",
      "id": "node/306255733",
      "properties": {
        "@id": "node/306255733",
        "name": "Puertas Viejas",
        "place": "village"
      },
      "geometry": {
        "type": "Point",
        "coordinates": [
          -86.046861,
          12.5994341
        ]
      }
    },
    {
      "type": "Feature",
      "id": "node/306256795",
      "properties": {
        "@id": "node/306256795",
        "admin_level": "6",
        "is_in:country": "Nicaragua",
        "is_in:state": "Matagalpa",
        "name": "San Ramón",
        "name:en": "San Ramon",
        "old_name": "San Ramón Nonato",
        "place": "town",
        "population": "2744",
        "postal_code": "62100"
      },
      "geometry": {
        "type": "Point",
        "coordinates": [
          -85.8384641,
          12.9228915
        ]
      }
    },
    {
      "type": "Feature",
      "id": "node/306469863",
      "properties": {
        "@id": "node/306469863",
        "admin_level": "6",
        "is_in:country": "Nicaragua",
        "is_in:state": "Región Autónoma de la Costa Caribe Norte",
        "name": "Rosita",
        "old_name": "Santa Rita",
        "place": "town",
        "population": "8535",
        "postal_code": "72200",
        "wikidata": "Q1648212",
        "wikipedia": "es:Rosita_(Nicaragua)"
      },
      "geometry": {
        "type": "Point",
        "coordinates": [
          -84.3984663,
          13.9241752
        ]
      }
    },
    {
      "type": "Feature",
      "id": "node/306563067",
      "properties": {
        "@id": "node/306563067",
        "name": "Los Brasiles",
        "place": "village"
      },
      "geometry": {
        "type": "Point",
        "coordinates": [
          -86.3646946,
          12.1928682
        ]
      }
    },
    {
      "type": "Feature",
      "id": "node/306564586",
      "properties": {
        "@id": "node/306564586",
        "name": "Masachapa",
        "place": "village"
      },
      "geometry": {
        "type": "Point",
        "coordinates": [
          -86.5159356,
          11.7846731
        ]
      }
    },
    {
      "type": "Feature",
      "id": "node/306572004",
      "properties": {
        "@id": "node/306572004",
        "admin_level": "6",
        "is_in:country": "Nicaragua",
        "is_in:state": "Región Autónoma de la Costa Caribe Sur",
        "name": "El Rama",
        "place": "town",
        "postal_code": "82300",
        "wikidata": "Q1324576",
        "wikipedia": "es:El_Rama"
      },
      "geometry": {
        "type": "Point",
        "coordinates": [
          -84.2203134,
          12.1614976
        ]
      }
    },
    {
      "type": "Feature",
      "id": "node/306573975",
      "properties": {
        "@id": "node/306573975",
        "admin_level": "6",
        "is_in:country": "Nicaragua",
        "is_in:state": "Región Autónoma de la Costa Caribe Sur",
        "name": "Nueva Guinea",
        "place": "town",
        "population": "27113",
        "postal_code": "82500",
        "source": "INETER 1:50k map, No. 3351iii",
        "wikidata": "Q2554341",
        "wikipedia": "es:Nueva_Guinea_(Nicaragua)"
      },
      "geometry": {
        "type": "Point",
        "coordinates": [
          -84.4563754,
          11.6867595
        ]
      }
    },
    {
      "type": "Feature",
      "id": "node/306620988",
      "properties": {
        "@id": "node/306620988",
        "admin_level": "6",
        "alt_name": "San Juan de Murra",
        "is_in:country": "Nicaragua",
        "is_in:state": "Neuva Segovia",
        "name": "Murra",
        "place": "town",
        "population": "12346",
        "postal_code": "38900",
        "source": "NGA 1:50k maps Nicaragua"
      },
      "geometry": {
        "type": "Point",
        "coordinates": [
          -86.0189402,
          13.7585589
        ]
      }
    },
    {
      "type": "Feature",
      "id": "node/306624453",
      "properties": {
        "@id": "node/306624453",
        "place": "hamlet"
      },
      "geometry": {
        "type": "Point",
        "coordinates": [
          -86.1822337,
          11.6697811
        ]
      }
    },
    {
      "type": "Feature",
      "id": "node/306946045",
      "properties": {
        "@id": "node/306946045",
        "admin_level": "6",
        "is_in:country": "Nicaragua",
        "is_in:state": "Región Autónoma de la Costa Caribe Norte",
        "name": "Waslala",
        "place": "town",
        "population": "10605",
        "postal_code": "72700",
        "reg_name": "Waslala Río de plata",
        "wikidata": "Q1018767",
        "wikipedia": "es:Waslala"
      },
      "geometry": {
        "type": "Point",
        "coordinates": [
          -85.3710527,
          13.3347755
        ]
      }
    },
    {
      "type": "Feature",
      "id": "node/306948215",
      "properties": {
        "@id": "node/306948215",
        "name": "San Bartolo",
        "place": "village",
        "source": "NGA 1:50k maps Nicaragua"
      },
      "geometry": {
        "type": "Point",
        "coordinates": [
          -85.9261882,
          13.5337539
        ]
      }
    },
    {
      "type": "Feature",
      "id": "node/307383316",
      "properties": {
        "@id": "node/307383316",
        "admin_level": "6",
        "is_in:country": "Nicaragua",
        "is_in:state": "Región Autónoma de la Costa Caribe Norte",
        "name": "Bonanza",
        "place": "town",
        "population": "8143",
        "postal_code": "72300",
        "wikidata": "Q892092",
        "wikipedia": "es:Bonanza_(Nicaragua)"
      },
      "geometry": {
        "type": "Point",
        "coordinates": [
          -84.6214489,
          14.0272145
        ]
      }
    },
    {
      "type": "Feature",
      "id": "node/307996939",
      "properties": {
        "@id": "node/307996939",
        "name": "Sandy Bay Sirpi",
        "place": "village"
      },
      "geometry": {
        "type": "Point",
        "coordinates": [
          -83.528918,
          12.9631296
        ]
      }
    },
    {
      "type": "Feature",
      "id": "node/308011111",
      "properties": {
        "@id": "node/308011111",
        "created_by": "Potlatch 0.10e",
        "name": "Prinzapolka",
        "place": "village"
      },
      "geometry": {
        "type": "Point",
        "coordinates": [
          -83.5650136,
          13.4071269
        ]
      }
    },
    {
      "type": "Feature",
      "id": "node/308015977",
      "properties": {
        "@id": "node/308015977",
        "alt_name": "Carata",
        "name": "Karatá",
        "place": "village"
      },
      "geometry": {
        "type": "Point",
        "coordinates": [
          -83.4813782,
          13.9241823
        ]
      }
    },
    {
      "type": "Feature",
      "id": "node/308063771",
      "properties": {
        "@id": "node/308063771",
        "admin_level": "6",
        "is_in:country": "Nicaragua",
        "is_in:state": "León",
        "name": "Achuapa",
        "old_name": "San José de Achuapa",
        "place": "town",
        "population": "13797",
        "postal_code": "22900",
        "wikidata": "Q2215392",
        "wikipedia": "es:Achuapa"
      },
      "geometry": {
        "type": "Point",
        "coordinates": [
          -86.5901037,
          13.0533007
        ]
      }
    },
    {
      "type": "Feature",
      "id": "node/308197442",
      "properties": {
        "@id": "node/308197442",
        "alt_name": "Santa María de Pantasma",
        "name": "Pantasma",
        "place": "town",
        "population": "37880",
        "postal_code": "66400",
        "wikidata": "Q2217474",
        "wikipedia": "es:Santa_María_de_Pantasma"
      },
      "geometry": {
        "type": "Point",
        "coordinates": [
          -85.944255,
          13.3491178
        ]
      }
    },
    {
      "type": "Feature",
      "id": "node/308260855",
      "properties": {
        "@id": "node/308260855",
        "admin_level": "6",
        "is_in:country": "Nicaragua",
        "is_in:state": "Chontales",
        "name": "Comalapa",
        "old_name": "Comalagalpan",
        "place": "town",
        "postal_code": "56500",
        "reg_name": "Comalapan",
        "wikidata": "Q677924",
        "wikipedia": "es:Comalapa_(Nicaragua)"
      },
      "geometry": {
        "type": "Point",
        "coordinates": [
          -85.5099817,
          12.2839411
        ]
      }
    },
    {
      "type": "Feature",
      "id": "node/308747680",
      "properties": {
        "@id": "node/308747680",
        "name": "El Panama",
        "place": "village",
        "source": "NGA 1:50k maps of Nicaragua"
      },
      "geometry": {
        "type": "Point",
        "coordinates": [
          -85.5893804,
          12.3204379
        ]
      }
    },
    {
      "type": "Feature",
      "id": "node/308749166",
      "properties": {
        "@id": "node/308749166",
        "name": "Espíritu Santo",
        "place": "village"
      },
      "geometry": {
        "type": "Point",
        "coordinates": [
          -85.5566221,
          12.3000764
        ]
      }
    },
    {
      "type": "Feature",
      "id": "node/310244358",
      "properties": {
        "@id": "node/310244358",
        "name": "Kangrina",
        "place": "village"
      },
      "geometry": {
        "type": "Point",
        "coordinates": [
          -84.9480659,
          13.1822295
        ]
      }
    },
    {
      "type": "Feature",
      "id": "node/310249029",
      "properties": {
        "@id": "node/310249029",
        "is_in:country": "Nicaragua",
        "is_in:state": "Jinotega",
        "name": "El Cuá",
        "place": "town",
        "population": "43305",
        "postal_code": "66500",
        "wikidata": "Q2214906",
        "wikipedia": "es:El_Cuá"
      },
      "geometry": {
        "type": "Point",
        "coordinates": [
          -85.6728924,
          13.3671482
        ]
      }
    },
    {
      "type": "Feature",
      "id": "node/460387450",
      "properties": {
        "@id": "node/460387450",
        "admin_level": "6",
        "is_in:country": "Nicaragua",
        "is_in:state": "Neuva Segovia",
        "name": "Dipilito",
        "old_name": "Virgen de la Piedra",
        "place": "town",
        "population": "5207",
        "postal_code": "38200",
        "ufi": "-1110836"
      },
      "geometry": {
        "type": "Point",
        "coordinates": [
          -86.5059797,
          13.7203815
        ]
      }
    },
    {
      "type": "Feature",
      "id": "node/460388421",
      "properties": {
        "@id": "node/460388421",
        "admin_level": "6",
        "is_in:country": "Nicaragua",
        "is_in:state": "Neuva Segovia",
        "name": "Macuelizo",
        "place": "town",
        "population": "6076",
        "postal_code": "39300",
        "ufi": "-1113224",
        "wikipedia": "es:Macuelizo_(Nicaragua)"
      },
      "geometry": {
        "type": "Point",
        "coordinates": [
          -86.6129619,
          13.6522138
        ]
      }
    },
    {
      "type": "Feature",
      "id": "node/460388755",
      "properties": {
        "@id": "node/460388755",
        "admin_level": "6",
        "is_in:country": "Nicaragua",
        "is_in:state": "Neuva Segovia",
        "name": "Santa Maria",
        "name:en": "Santa Maria",
        "place": "town",
        "population": "4404",
        "postal_code": "38600",
        "ufi": "-1114596",
        "wikipedia": "es:Santa_María_(Nicaragua)"
      },
      "geometry": {
        "type": "Point",
        "coordinates": [
          -86.708282,
          13.7471067
        ]
      }
    },
    {
      "type": "Feature",
      "id": "node/460399814",
      "properties": {
        "@id": "node/460399814",
        "admin_level": "6",
        "alt_name": "San Juan del Río Coco",
        "name": "San Juan de Río Coco",
        "old_name": "San Juan de Telpaneca",
        "place": "town",
        "population": "21114",
        "postal_code": "35800",
        "wikipedia": "es:San_Juan_de_Río_Coco"
      },
      "geometry": {
        "type": "Point",
        "coordinates": [
          -86.1648222,
          13.5445863
        ]
      }
    },
    {
      "type": "Feature",
      "id": "node/503206157",
      "properties": {
        "@id": "node/503206157",
        "name": "Las Manos",
        "place": "town"
      },
      "geometry": {
        "type": "Point",
        "coordinates": [
          -86.560385,
          13.7869243
        ]
      }
    },
    {
      "type": "Feature",
      "id": "node/561144030",
      "properties": {
        "@id": "node/561144030",
        "is_in:country": "Nicaragua",
        "is_in:state": "Rivas",
        "name": "Tola",
        "place": "town",
        "population": "22012",
        "postal_code": "48500"
      },
      "geometry": {
        "type": "Point",
        "coordinates": [
          -85.9390068,
          11.4387983
        ]
      }
    },
    {
      "type": "Feature",
      "id": "node/574699254",
      "properties": {
        "@id": "node/574699254",
        "name": "Agua Dulce",
        "place": "hamlet"
      },
      "geometry": {
        "type": "Point",
        "coordinates": [
          -86.4615137,
          13.5644569
        ]
      }
    },
    {
      "type": "Feature",
      "id": "node/574725641",
      "properties": {
        "@id": "node/574725641",
        "name": "Las Cruces",
        "place": "hamlet"
      },
      "geometry": {
        "type": "Point",
        "coordinates": [
          -86.4329765,
          13.548655
        ]
      }
    },
    {
      "type": "Feature",
      "id": "node/588223886",
      "properties": {
        "@id": "node/588223886",
        "name": "El Ostional",
        "place": "village"
      },
      "geometry": {
        "type": "Point",
        "coordinates": [
          -85.7608416,
          11.1121078
        ]
      }
    },
    {
      "type": "Feature",
      "id": "node/588223887",
      "properties": {
        "@id": "node/588223887",
        "name": "Ensenada Manzanillo",
        "place": "hamlet"
      },
      "geometry": {
        "type": "Point",
        "coordinates": [
          -85.7361618,
          11.092076
        ]
      }
    },
    {
      "type": "Feature",
      "id": "node/588223888",
      "properties": {
        "@id": "node/588223888",
        "name": "El Pochote",
        "place": "village"
      },
      "geometry": {
        "type": "Point",
        "coordinates": [
          -85.7193551,
          11.0909865
        ]
      }
    },
    {
      "type": "Feature",
      "id": "node/697190814",
      "properties": {
        "@id": "node/697190814",
        "name": "El Polo",
        "place": "hamlet"
      },
      "geometry": {
        "type": "Point",
        "coordinates": [
          -85.6533833,
          13.0771701
        ]
      }
    },
    {
      "type": "Feature",
      "id": "node/697190843",
      "properties": {
        "@id": "node/697190843",
        "name": "Wasake",
        "place": "hamlet"
      },
      "geometry": {
        "type": "Point",
        "coordinates": [
          -85.6857169,
          13.1207149
        ]
      }
    },
    {
      "type": "Feature",
      "id": "node/697190853",
      "properties": {
        "@id": "node/697190853",
        "name": "Ceiba Bulbul",
        "place": "hamlet"
      },
      "geometry": {
        "type": "Point",
        "coordinates": [
          -85.6056799,
          13.1687275
        ]
      }
    },
    {
      "type": "Feature",
      "id": "node/697190869",
      "properties": {
        "@id": "node/697190869",
        "name": "El Carmen 1",
        "place": "hamlet"
      },
      "geometry": {
        "type": "Point",
        "coordinates": [
          -85.6206997,
          13.2311714
        ]
      }
    },
    {
      "type": "Feature",
      "id": "node/784918974",
      "properties": {
        "@id": "node/784918974",
        "admin_level": "4",
        "capital": "4",
        "is_in": "Nicaragua",
        "is_in:state": "Masaya",
        "name": "Masaya",
        "name:en": "Masaya",
        "name:hu": "Masaya",
        "name:ru": "Масая",
        "name:uk": "Масая",
        "old_name": "Mazātlān",
        "place": "city",
        "population": "139701",
        "wikipedia": "es:Masaya"
      },
      "geometry": {
        "type": "Point",
        "coordinates": [
          -86.0882612,
          11.9763955
        ]
      }
    },
    {
      "type": "Feature",
      "id": "node/871120168",
      "properties": {
        "@id": "node/871120168",
        "is_in": "Carazo",
        "name": "La Boquita",
        "place": "village"
      },
      "geometry": {
        "type": "Point",
        "coordinates": [
          -86.3823607,
          11.6775912
        ]
      }
    },
    {
      "type": "Feature",
      "id": "node/871127105",
      "properties": {
        "@id": "node/871127105",
        "name": "Casares",
        "place": "village"
      },
      "geometry": {
        "type": "Point",
        "coordinates": [
          -86.3574698,
          11.6464473
        ]
      }
    },
    {
      "type": "Feature",
      "id": "node/979906391",
      "properties": {
        "@id": "node/979906391",
        "admin_level": "6",
        "alt_name": "Graytown",
        "is_in:country": "Nicaragua",
        "is_in:state": "Río San Juan",
        "name": "San Juan de Nicaragua",
        "name:en": "Greytown",
        "name:es": "San Juan de Nicaragua",
        "name_1": "New Greytown",
        "name_2": "Nuevo San Juan del Norte",
        "old_name": "San Juan del Norte",
        "place": "town",
        "population": "985",
        "postal_code": "92500",
        "wikidata": "Q2063725",
        "wikipedia": "es:San_Juan_del_Norte"
      },
      "geometry": {
        "type": "Point",
        "coordinates": [
          -83.7335707,
          10.9472765
        ]
      }
    },
    {
      "type": "Feature",
      "id": "node/980288178",
      "properties": {
        "@id": "node/980288178",
        "name": "Punta Gorda",
        "place": "village"
      },
      "geometry": {
        "type": "Point",
        "coordinates": [
          -83.7837458,
          11.5163452
        ]
      }
    },
    {
      "type": "Feature",
      "id": "node/1192026718",
      "properties": {
        "@id": "node/1192026718",
        "name": "Merida",
        "place": "village",
        "postal_code": "48800"
      },
      "geometry": {
        "type": "Point",
        "coordinates": [
          -85.5620308,
          11.4501201
        ]
      }
    },
    {
      "type": "Feature",
      "id": "node/1230350532",
      "properties": {
        "@id": "node/1230350532",
        "name": "Sonzapote",
        "place": "village"
      },
      "geometry": {
        "type": "Point",
        "coordinates": [
          -85.8075492,
          11.7673595
        ]
      }
    },
    {
      "type": "Feature",
      "id": "node/1335849560",
      "properties": {
        "@id": "node/1335849560",
        "name": "San Diego",
        "place": "village"
      },
      "geometry": {
        "type": "Point",
        "coordinates": [
          -86.3709239,
          13.3765373
        ]
      }
    },
    {
      "type": "Feature",
      "id": "node/1336002202",
      "properties": {
        "@id": "node/1336002202",
        "name": "Santa Theresa",
        "place": "hamlet"
      },
      "geometry": {
        "type": "Point",
        "coordinates": [
          -86.4394695,
          13.3149092
        ]
      }
    },
    {
      "type": "Feature",
      "id": "node/1336074078",
      "properties": {
        "@id": "node/1336074078",
        "name": "Chaguite Grande",
        "place": "hamlet"
      },
      "geometry": {
        "type": "Point",
        "coordinates": [
          -86.4269928,
          13.3116639
        ]
      }
    },
    {
      "type": "Feature",
      "id": "node/1336074079",
      "properties": {
        "@id": "node/1336074079",
        "name": "El Espino",
        "place": "hamlet"
      },
      "geometry": {
        "type": "Point",
        "coordinates": [
          -86.4302639,
          13.2748588
        ]
      }
    },
    {
      "type": "Feature",
      "id": "node/1336074084",
      "properties": {
        "@id": "node/1336074084",
        "name": "El Nispero",
        "place": "hamlet"
      },
      "geometry": {
        "type": "Point",
        "coordinates": [
          -86.4452217,
          13.3023183
        ]
      }
    },
    {
      "type": "Feature",
      "id": "node/1336074086",
      "properties": {
        "@id": "node/1336074086",
        "name": "El Qualiqueme",
        "place": "hamlet"
      },
      "geometry": {
        "type": "Point",
        "coordinates": [
          -86.4151559,
          13.2738583
        ]
      }
    },
    {
      "type": "Feature",
      "id": "node/1336074087",
      "properties": {
        "@id": "node/1336074087",
        "name": "El Zorillo",
        "place": "hamlet"
      },
      "geometry": {
        "type": "Point",
        "coordinates": [
          -86.4397075,
          13.2851961
        ]
      }
    },
    {
      "type": "Feature",
      "id": "node/1336074096",
      "properties": {
        "@id": "node/1336074096",
        "name": "La Honduras Azul",
        "place": "hamlet"
      },
      "geometry": {
        "type": "Point",
        "coordinates": [
          -86.4201038,
          13.2803805
        ]
      }
    },
    {
      "type": "Feature",
      "id": "node/1336074099",
      "properties": {
        "@id": "node/1336074099",
        "name": "Laguna de los Hernandez",
        "place": "hamlet"
      },
      "geometry": {
        "type": "Point",
        "coordinates": [
          -86.4276274,
          13.3037806
        ]
      }
    },
    {
      "type": "Feature",
      "id": "node/1336101517",
      "properties": {
        "@id": "node/1336101517",
        "name": "San Pedro",
        "place": "hamlet"
      },
      "geometry": {
        "type": "Point",
        "coordinates": [
          -86.4220619,
          13.3312056
        ]
      }
    },
    {
      "type": "Feature",
      "id": "node/1336107111",
      "properties": {
        "@id": "node/1336107111",
        "name": "El Mojon",
        "place": "hamlet"
      },
      "geometry": {
        "type": "Point",
        "coordinates": [
          -86.4312408,
          13.3720111
        ]
      }
    },
    {
      "type": "Feature",
      "id": "node/1336149969",
      "properties": {
        "@id": "node/1336149969",
        "name": "Ducuale Grande",
        "place": "hamlet"
      },
      "geometry": {
        "type": "Point",
        "coordinates": [
          -86.4122451,
          13.3848338
        ]
      }
    },
    {
      "type": "Feature",
      "id": "node/1336149970",
      "properties": {
        "@id": "node/1336149970",
        "name": "Ducuali",
        "place": "hamlet"
      },
      "geometry": {
        "type": "Point",
        "coordinates": [
          -86.3979134,
          13.4134835
        ]
      }
    },
    {
      "type": "Feature",
      "id": "node/1336151032",
      "properties": {
        "@id": "node/1336151032",
        "name": "San Fransisco",
        "place": "hamlet"
      },
      "geometry": {
        "type": "Point",
        "coordinates": [
          -86.4071325,
          13.3987259
        ]
      }
    },
    {
      "type": "Feature",
      "id": "node/1336151037",
      "properties": {
        "@id": "node/1336151037",
        "name": "Santa Elena",
        "place": "hamlet"
      },
      "geometry": {
        "type": "Point",
        "coordinates": [
          -86.4127319,
          13.3926279
        ]
      }
    },
    {
      "type": "Feature",
      "id": "node/1336151038",
      "properties": {
        "@id": "node/1336151038",
        "name": "Santa Elisa",
        "place": "hamlet"
      },
      "geometry": {
        "type": "Point",
        "coordinates": [
          -86.4087617,
          13.3827109
        ]
      }
    },
    {
      "type": "Feature",
      "id": "node/1336151039",
      "properties": {
        "@id": "node/1336151039",
        "name": "Santa Rita",
        "place": "hamlet"
      },
      "geometry": {
        "type": "Point",
        "coordinates": [
          -86.3814838,
          13.4010776
        ]
      }
    },
    {
      "type": "Feature",
      "id": "node/1553841773",
      "properties": {
        "@id": "node/1553841773",
        "is_in:country": "Nicaragua",
        "is_in:state": "Río San Juan",
        "name": "El Castillo",
        "place": "village",
        "postal_code": "92200",
        "wikidata": "Q581121",
        "wikipedia": "es:El_Castillo_(Nicaragua)"
      },
      "geometry": {
        "type": "Point",
        "coordinates": [
          -84.3964625,
          11.0180606
        ]
      }
    },
    {
      "type": "Feature",
      "id": "node/1587636089",
      "properties": {
        "@id": "node/1587636089",
        "int_name": "Land Bank El Manantial",
        "name": "El Manantial - Banco de Tierra",
        "place": "hamlet"
      },
      "geometry": {
        "type": "Point",
        "coordinates": [
          -86.238536,
          11.7342491
        ]
      }
    },
    {
      "type": "Feature",
      "id": "node/1628881975",
      "properties": {
        "@id": "node/1628881975",
        "is_in:country": "Nicaragua",
        "is_in:state": "Río San Juan",
        "name": "Boca de Sábalos",
        "place": "town",
        "postal_code": "92200",
        "wikidata": "Q581121",
        "wikipedia": "es:El_Castillo_(Nicaragua)"
      },
      "geometry": {
        "type": "Point",
        "coordinates": [
          -84.4736946,
          11.0435576
        ]
      }
    },
    {
      "type": "Feature",
      "id": "node/1628881976",
      "properties": {
        "@id": "node/1628881976",
        "name": "Buena Vista",
        "place": "village"
      },
      "geometry": {
        "type": "Point",
        "coordinates": [
          -84.431656,
          11.1645599
        ]
      }
    },
    {
      "type": "Feature",
      "id": "node/1658387005",
      "properties": {
        "@id": "node/1658387005",
        "name": "El Paso de Panaloya",
        "place": "village"
      },
      "geometry": {
        "type": "Point",
        "coordinates": [
          -85.8862158,
          12.1137413
        ]
      }
    },
    {
      "type": "Feature",
      "id": "node/1658387008",
      "properties": {
        "@id": "node/1658387008",
        "name": "Los Angeles",
        "place": "hamlet",
        "surface": "gravel"
      },
      "geometry": {
        "type": "Point",
        "coordinates": [
          -85.8377513,
          12.1354929
        ]
      }
    },
    {
      "type": "Feature",
      "id": "node/1658387020",
      "properties": {
        "@id": "node/1658387020",
        "name": "Malacatoya",
        "place": "village"
      },
      "geometry": {
        "type": "Point",
        "coordinates": [
          -85.8416326,
          12.1490484
        ]
      }
    },
    {
      "type": "Feature",
      "id": "node/1658387021",
      "properties": {
        "@id": "node/1658387021",
        "name": "Tepalón",
        "place": "village"
      },
      "geometry": {
        "type": "Point",
        "coordinates": [
          -85.8076381,
          12.1353085
        ]
      }
    },
    {
      "type": "Feature",
      "id": "node/1658399621",
      "properties": {
        "@id": "node/1658399621",
        "name": "Los Cocos",
        "place": "village"
      },
      "geometry": {
        "type": "Point",
        "coordinates": [
          -85.8897812,
          12.0915893
        ]
      }
    },
    {
      "type": "Feature",
      "id": "node/1675904159",
      "properties": {
        "@id": "node/1675904159",
        "name": "El Gigante",
        "place": "village"
      },
      "geometry": {
        "type": "Point",
        "coordinates": [
          -86.0323627,
          11.3906377
        ]
      }
    },
    {
      "type": "Feature",
      "id": "node/1688424825",
      "properties": {
        "@id": "node/1688424825",
        "alt_name": "Valle San Juan de Somoto",
        "name": "San Juan de Somoto",
        "place": "village",
        "source": "NGA maps 1:50k of Nicaragua"
      },
      "geometry": {
        "type": "Point",
        "coordinates": [
          -86.5372489,
          13.5227857
        ]
      }
    },
    {
      "type": "Feature",
      "id": "node/1690434197",
      "properties": {
        "@id": "node/1690434197",
        "name": "El Jobo",
        "place": "hamlet"
      },
      "geometry": {
        "type": "Point",
        "coordinates": [
          -85.281646,
          12.9149017
        ]
      }
    },
    {
      "type": "Feature",
      "id": "node/1701112135",
      "properties": {
        "@id": "node/1701112135",
        "name": "Zapote",
        "place": "hamlet",
        "source": "Wikipedia"
      },
      "geometry": {
        "type": "Point",
        "coordinates": [
          -86.5322866,
          13.5113275
        ]
      }
    },
    {
      "type": "Feature",
      "id": "node/1704432605",
      "properties": {
        "@id": "node/1704432605",
        "name": "El Jocote",
        "place": "village",
        "source": "Bing"
      },
      "geometry": {
        "type": "Point",
        "coordinates": [
          -86.3938174,
          13.5151821
        ]
      }
    },
    {
      "type": "Feature",
      "id": "node/1706866855",
      "properties": {
        "@id": "node/1706866855",
        "admin_level": "4",
        "capital": "4",
        "is_in:country": "Nicaragua",
        "is_in:state": "Jinotega",
        "name": "Jinotega",
        "name:ru": "Хинотега",
        "place": "city",
        "population": "123548",
        "postal_code": "65000",
        "website": "http://www.alcaldiajinotega.gob.ni/",
        "wikipedia": "es:Jinotega"
      },
      "geometry": {
        "type": "Point",
        "coordinates": [
          -86.0032475,
          13.0920454
        ]
      }
    },
    {
      "type": "Feature",
      "id": "node/1707833548",
      "properties": {
        "@id": "node/1707833548",
        "name": "Pochomil",
        "place": "village"
      },
      "geometry": {
        "type": "Point",
        "coordinates": [
          -86.5064578,
          11.7722211
        ]
      }
    },
    {
      "type": "Feature",
      "id": "node/1710205402",
      "properties": {
        "@id": "node/1710205402",
        "admin_level": "6",
        "is_in:country": "Nicaragua",
        "is_in:state": "Managua",
        "name": "San Francisco Libre",
        "old_name": "San Francisco del Carnicero",
        "place": "town",
        "population": "10503",
        "postal_code": "15300",
        "ufi": "-1114187",
        "wikipedia": "es:San_Francisco_Libre"
      },
      "geometry": {
        "type": "Point",
        "coordinates": [
          -86.3009851,
          12.5049129
        ]
      }
    },
    {
      "type": "Feature",
      "id": "node/1710702197",
      "properties": {
        "@id": "node/1710702197",
        "is_in:country": "Nicaragua",
        "is_in:state": "Carazo",
        "name": "La Conquista",
        "old_name": "Valle de la Conquista",
        "place": "town",
        "population": "3777",
        "postal_code": "46700",
        "wikipedia": "es:La_Conquista"
      },
      "geometry": {
        "type": "Point",
        "coordinates": [
          -86.1929446,
          11.7339791
        ]
      }
    },
    {
      "type": "Feature",
      "id": "node/1717850772",
      "properties": {
        "@id": "node/1717850772",
        "admin_level": "6",
        "name": "San Jorge",
        "place": "town",
        "population": "8024",
        "postal_code": "48100",
        "wikidata": "Q956573",
        "wikipedia": "es:San_Jorge_(Nicaragua)"
      },
      "geometry": {
        "type": "Point",
        "coordinates": [
          -85.8007221,
          11.4560565
        ]
      }
    },
    {
      "type": "Feature",
      "id": "node/1720544483",
      "properties": {
        "@id": "node/1720544483",
        "admin_level": "6",
        "is_in": "Nicaragua",
        "name": "Diriá",
        "name:en": "Diria",
        "place": "town",
        "population": "6375",
        "postal_code": "44200",
        "wikidata": "Q1647847",
        "wikipedia": "es:Diriá"
      },
      "geometry": {
        "type": "Point",
        "coordinates": [
          -86.0559548,
          11.8863902
        ]
      }
    },
    {
      "type": "Feature",
      "id": "node/1720790862",
      "properties": {
        "@id": "node/1720790862",
        "is_in:country": "Nicaragua",
        "is_in:state": "Chinandega",
        "name": "Corinto",
        "name:lt": "Korintas",
        "place": "town",
        "population": "16466",
        "postal_code": "26400",
        "ref:LOCODE": "NICIO",
        "wikidata": "Q1132939",
        "wikipedia": "es:Corinto_(Nicaragua)"
      },
      "geometry": {
        "type": "Point",
        "coordinates": [
          -87.1742553,
          12.4816978
        ]
      }
    },
    {
      "type": "Feature",
      "id": "node/1721621699",
      "properties": {
        "@id": "node/1721621699",
        "is_in": "Nicaragua",
        "name": "Diriomo",
        "place": "town",
        "population": "22352",
        "postal_code": "44100",
        "wikidata": "Q2215569",
        "wikipedia": "es:Diriomo"
      },
      "geometry": {
        "type": "Point",
        "coordinates": [
          -86.0509984,
          11.8746151
        ]
      }
    },
    {
      "type": "Feature",
      "id": "node/1721639974",
      "properties": {
        "@id": "node/1721639974",
        "admin_level": "6",
        "is_in:country": "Nicaragua",
        "is_in:state": "Carazo",
        "name": "Diriamba",
        "old_name": "La Villa de Diriamba",
        "place": "town",
        "population": "57542",
        "postal_code": "46300",
        "wikipedia": "en:Diriamba"
      },
      "geometry": {
        "type": "Point",
        "coordinates": [
          -86.2394138,
          11.858227
        ]
      }
    },
    {
      "type": "Feature",
      "id": "node/1728419455",
      "properties": {
        "@id": "node/1728419455",
        "name": "Las Penitas",
        "place": "village"
      },
      "geometry": {
        "type": "Point",
        "coordinates": [
          -87.0214543,
          12.361382
        ]
      }
    },
    {
      "type": "Feature",
      "id": "node/1728421401",
      "properties": {
        "@id": "node/1728421401",
        "name": "Poneloya",
        "place": "village"
      },
      "geometry": {
        "type": "Point",
        "coordinates": [
          -87.0432938,
          12.3829117
        ]
      }
    },
    {
      "type": "Feature",
      "id": "node/1728827830",
      "properties": {
        "@id": "node/1728827830",
        "name": "La Concepción",
        "place": "village",
        "source": "Bing"
      },
      "geometry": {
        "type": "Point",
        "coordinates": [
          -85.673456,
          11.5555635
        ]
      }
    },
    {
      "type": "Feature",
      "id": "node/1728827831",
      "properties": {
        "@id": "node/1728827831",
        "name": "La Flor",
        "place": "village",
        "source": "Bing"
      },
      "geometry": {
        "type": "Point",
        "coordinates": [
          -85.6564435,
          11.5687117
        ]
      }
    },
    {
      "type": "Feature",
      "id": "node/1728827832",
      "properties": {
        "@id": "node/1728827832",
        "name": "Las Pilas",
        "place": "village",
        "source": "Bing"
      },
      "geometry": {
        "type": "Point",
        "coordinates": [
          -85.5882196,
          11.5129331
        ]
      }
    },
    {
      "type": "Feature",
      "id": "node/1728827836",
      "properties": {
        "@id": "node/1728827836",
        "is_in": "Isla De Ometepe, Rivas, Nicaragua",
        "name": "Los Ángeles",
        "place": "village",
        "source": "Bing"
      },
      "geometry": {
        "type": "Point",
        "coordinates": [
          -85.6938691,
          11.4971436
        ]
      }
    },
    {
      "type": "Feature",
      "id": "node/1728827843",
      "properties": {
        "@id": "node/1728827843",
        "name": "Puerto de Gracias",
        "place": "hamlet",
        "source": "Bing"
      },
      "geometry": {
        "type": "Point",
        "coordinates": [
          -85.5872676,
          11.5861035
        ]
      }
    },
    {
      "type": "Feature",
      "id": "node/1728827858",
      "properties": {
        "@id": "node/1728827858",
        "is_in": "Isla De Ometepe, Rivas, Nicaragua",
        "name": "San José del Sur",
        "place": "village",
        "source": "Bing"
      },
      "geometry": {
        "type": "Point",
        "coordinates": [
          -85.6459584,
          11.4859886
        ]
      }
    },
    {
      "type": "Feature",
      "id": "node/1728827862",
      "properties": {
        "@id": "node/1728827862",
        "name": "San Marcos",
        "place": "village",
        "source": "Bing"
      },
      "geometry": {
        "type": "Point",
        "coordinates": [
          -85.6480598,
          11.5824377
        ]
      }
    },
    {
      "type": "Feature",
      "id": "node/1728827870",
      "properties": {
        "@id": "node/1728827870",
        "is_in": "Isla De Ometepe, Rivas, Nicaragua",
        "name": "Urbaite",
        "place": "village",
        "source": "Bing"
      },
      "geometry": {
        "type": "Point",
        "coordinates": [
          -85.5874384,
          11.523763
        ]
      }
    },
    {
      "type": "Feature",
      "id": "node/1730424820",
      "properties": {
        "@id": "node/1730424820",
        "name": "La Estancia",
        "place": "village"
      },
      "geometry": {
        "type": "Point",
        "coordinates": [
          -86.1677776,
          13.8805298
        ]
      }
    },
    {
      "type": "Feature",
      "id": "node/1736265551",
      "properties": {
        "@id": "node/1736265551",
        "name": "Amatillo",
        "place": "hamlet",
        "source": "Bing"
      },
      "geometry": {
        "type": "Point",
        "coordinates": [
          -86.6250151,
          13.6379524
        ]
      }
    },
    {
      "type": "Feature",
      "id": "node/1736265571",
      "properties": {
        "@id": "node/1736265571",
        "name": "Los Calpules",
        "place": "village",
        "source": "Bing"
      },
      "geometry": {
        "type": "Point",
        "coordinates": [
          -86.6277171,
          13.6555252
        ]
      }
    },
    {
      "type": "Feature",
      "id": "node/1736276625",
      "properties": {
        "@id": "node/1736276625",
        "name": "Ococona",
        "place": "village",
        "source": "Bing"
      },
      "geometry": {
        "type": "Point",
        "coordinates": [
          -86.6225544,
          13.7328132
        ]
      }
    },
    {
      "type": "Feature",
      "id": "node/1736532503",
      "properties": {
        "@id": "node/1736532503",
        "name": "El Zapote",
        "place": "hamlet"
      },
      "geometry": {
        "type": "Point",
        "coordinates": [
          -86.4421134,
          13.5861635
        ]
      }
    },
    {
      "type": "Feature",
      "id": "node/1736532505",
      "properties": {
        "@id": "node/1736532505",
        "name": "Las Cruces",
        "place": "village",
        "source": "Bing"
      },
      "geometry": {
        "type": "Point",
        "coordinates": [
          -86.3986337,
          13.6572614
        ]
      }
    },
    {
      "type": "Feature",
      "id": "node/1736532508",
      "properties": {
        "@id": "node/1736532508",
        "name": "San Antonio",
        "place": "village",
        "source": "Bing"
      },
      "geometry": {
        "type": "Point",
        "coordinates": [
          -86.3893103,
          13.6184659
        ]
      }
    },
    {
      "type": "Feature",
      "id": "node/1736532509",
      "properties": {
        "@id": "node/1736532509",
        "name": "Yaraje",
        "place": "hamlet",
        "source": "Bing"
      },
      "geometry": {
        "type": "Point",
        "coordinates": [
          -86.4488662,
          13.6123713
        ]
      }
    },
    {
      "type": "Feature",
      "id": "node/1737146549",
      "properties": {
        "@id": "node/1737146549",
        "name": "Poza Galana",
        "place": "hamlet",
        "source": "Bing"
      },
      "geometry": {
        "type": "Point",
        "coordinates": [
          -86.6207837,
          13.6796849
        ]
      }
    },
    {
      "type": "Feature",
      "id": "node/1737173396",
      "properties": {
        "@id": "node/1737173396",
        "name": "Dipilito Viejo",
        "place": "village"
      },
      "geometry": {
        "type": "Point",
        "coordinates": [
          -86.51171,
          13.7455966
        ]
      }
    },
    {
      "type": "Feature",
      "id": "node/1738283049",
      "properties": {
        "@id": "node/1738283049",
        "name": "Las Cañas",
        "place": "hamlet",
        "source": "Bing"
      },
      "geometry": {
        "type": "Point",
        "coordinates": [
          -86.56948,
          13.6322876
        ]
      }
    },
    {
      "type": "Feature",
      "id": "node/1739083567",
      "properties": {
        "@id": "node/1739083567",
        "name": "Las Playas",
        "note": "?",
        "place": "hamlet"
      },
      "geometry": {
        "type": "Point",
        "coordinates": [
          -86.6163604,
          13.7128527
        ]
      }
    },
    {
      "type": "Feature",
      "id": "node/1739122679",
      "properties": {
        "@id": "node/1739122679",
        "name": "El Cacao",
        "place": "hamlet",
        "source": "Bing"
      },
      "geometry": {
        "type": "Point",
        "coordinates": [
          -86.4122435,
          13.6074769
        ]
      }
    },
    {
      "type": "Feature",
      "id": "node/1739122680",
      "properties": {
        "@id": "node/1739122680",
        "name": "Zazalo",
        "place": "village",
        "source": "Bing"
      },
      "geometry": {
        "type": "Point",
        "coordinates": [
          -86.3753582,
          13.6182974
        ]
      }
    },
    {
      "type": "Feature",
      "id": "node/1739153783",
      "properties": {
        "@id": "node/1739153783",
        "name": "El Carao",
        "place": "hamlet",
        "source": "Bing"
      },
      "geometry": {
        "type": "Point",
        "coordinates": [
          -86.4448866,
          13.6829114
        ]
      }
    },
    {
      "type": "Feature",
      "id": "node/1744130078",
      "properties": {
        "@id": "node/1744130078",
        "alt_name": "La Villa de Limay",
        "name": "San Juan de Limay",
        "place": "town",
        "population": "17434",
        "postal_code": "32300",
        "ufi": "-1114304",
        "wikipedia": "es:San_Juan_de_Limay"
      },
      "geometry": {
        "type": "Point",
        "coordinates": [
          -86.6123582,
          13.1745803
        ]
      }
    },
    {
      "type": "Feature",
      "id": "node/1744222697",
      "properties": {
        "@id": "node/1744222697",
        "name": "la Sirena",
        "place": "village",
        "source": "Bing"
      },
      "geometry": {
        "type": "Point",
        "coordinates": [
          -86.3706337,
          13.1577623
        ]
      }
    },
    {
      "type": "Feature",
      "id": "node/1745603532",
      "properties": {
        "@id": "node/1745603532",
        "name": "El Carmen",
        "place": "hamlet"
      },
      "geometry": {
        "type": "Point",
        "coordinates": [
          -86.4283997,
          13.4804005
        ]
      }
    },
    {
      "type": "Feature",
      "id": "node/1745603533",
      "properties": {
        "@id": "node/1745603533",
        "name": "La Esperanza",
        "place": "village"
      },
      "geometry": {
        "type": "Point",
        "coordinates": [
          -86.5193351,
          13.4936295
        ]
      }
    },
    {
      "type": "Feature",
      "id": "node/1745603534",
      "properties": {
        "@id": "node/1745603534",
        "name": "San Francisco",
        "place": "hamlet"
      },
      "geometry": {
        "type": "Point",
        "coordinates": [
          -86.4671985,
          13.515629
        ]
      }
    },
    {
      "type": "Feature",
      "id": "node/1793941667",
      "properties": {
        "@id": "node/1793941667",
        "alt_name": "Santo Domingo",
        "name": "Playa Santo Domingo",
        "place": "hamlet",
        "postal_code": "48800"
      },
      "geometry": {
        "type": "Point",
        "coordinates": [
          -85.5543754,
          11.5115066
        ]
      }
    },
    {
      "type": "Feature",
      "id": "node/1820964690",
      "properties": {
        "@id": "node/1820964690",
        "name": "Colonia Becklin",
        "place": "hamlet"
      },
      "geometry": {
        "type": "Point",
        "coordinates": [
          -86.3259103,
          12.0700998
        ]
      }
    },
    {
      "type": "Feature",
      "id": "node/1828105050",
      "properties": {
        "@id": "node/1828105050",
        "name": "Suní",
        "place": "village"
      },
      "geometry": {
        "type": "Point",
        "coordinates": [
          -86.0983104,
          13.1569051
        ]
      }
    },
    {
      "type": "Feature",
      "id": "node/1828732802",
      "properties": {
        "@id": "node/1828732802",
        "name": "San Marcos",
        "place": "village"
      },
      "geometry": {
        "type": "Point",
        "coordinates": [
          -86.0980684,
          13.1351715
        ]
      }
    },
    {
      "type": "Feature",
      "id": "node/1828755252",
      "properties": {
        "@id": "node/1828755252",
        "name": "Sacaclí",
        "place": "village"
      },
      "geometry": {
        "type": "Point",
        "coordinates": [
          -86.1242361,
          13.1063956
        ]
      }
    },
    {
      "type": "Feature",
      "id": "node/1828757619",
      "properties": {
        "@id": "node/1828757619",
        "name": "Las Lomas",
        "place": "village"
      },
      "geometry": {
        "type": "Point",
        "coordinates": [
          -86.0430832,
          13.1277114
        ]
      }
    },
    {
      "type": "Feature",
      "id": "node/1829927225",
      "properties": {
        "@id": "node/1829927225",
        "name": "Santa Cruz",
        "place": "village",
        "postal_code": "48800"
      },
      "geometry": {
        "type": "Point",
        "coordinates": [
          -85.5389641,
          11.489237
        ]
      }
    },
    {
      "type": "Feature",
      "id": "node/1844810644",
      "properties": {
        "@id": "node/1844810644",
        "name": "Empalme de Boaco",
        "place": "village"
      },
      "geometry": {
        "type": "Point",
        "coordinates": [
          -85.7474404,
          12.4154935
        ]
      }
    },
    {
      "type": "Feature",
      "id": "node/1844810646",
      "properties": {
        "@id": "node/1844810646",
        "name": "Empalme Papaturro",
        "place": "village"
      },
      "geometry": {
        "type": "Point",
        "coordinates": [
          -85.7327204,
          12.4289992
        ]
      }
    },
    {
      "type": "Feature",
      "id": "node/1844810648",
      "properties": {
        "@id": "node/1844810648",
        "name": "Boaquito",
        "place": "village"
      },
      "geometry": {
        "type": "Point",
        "coordinates": [
          -85.7498436,
          12.4510636
        ]
      }
    },
    {
      "type": "Feature",
      "id": "node/1875479328",
      "properties": {
        "@id": "node/1875479328",
        "admin_level": "6",
        "name": "San Juan de Oriente",
        "place": "town",
        "population": "3738",
        "postal_code": "42800",
        "wikipedia": "es:San_Juan_de_Oriente"
      },
      "geometry": {
        "type": "Point",
        "coordinates": [
          -86.0745962,
          11.9051691
        ]
      }
    },
    {
      "type": "Feature",
      "id": "node/1880983087",
      "properties": {
        "@id": "node/1880983087",
        "name": "Buena Vista",
        "place": "hamlet"
      },
      "geometry": {
        "type": "Point",
        "coordinates": [
          -86.1781938,
          11.6775809
        ]
      }
    },
    {
      "type": "Feature",
      "id": "node/2043148560",
      "properties": {
        "@id": "node/2043148560",
        "name": "El Eden",
        "place": "hamlet"
      },
      "geometry": {
        "type": "Point",
        "coordinates": [
          -86.2356304,
          12.006613
        ]
      }
    },
    {
      "type": "Feature",
      "id": "node/2092534189",
      "properties": {
        "@id": "node/2092534189",
        "designation": "Comarca",
        "name": "El Chaparral",
        "place": "hamlet"
      },
      "geometry": {
        "type": "Point",
        "coordinates": [
          -86.8707252,
          13.2594728
        ]
      }
    },
    {
      "type": "Feature",
      "id": "node/2117609598",
      "properties": {
        "@id": "node/2117609598",
        "admin_level": "6",
        "alt_name": "Dalia",
        "name": "La Dalia",
        "place": "town",
        "postal_code": "62700",
        "wikipedia": "es:El_Tuma_-_La_Dalia"
      },
      "geometry": {
        "type": "Point",
        "coordinates": [
          -85.7333119,
          13.1377801
        ]
      }
    },
    {
      "type": "Feature",
      "id": "node/2117609599",
      "properties": {
        "@id": "node/2117609599",
        "admin_level": "6",
        "is_in:country": "Nicaragua",
        "is_in:state": "Managua",
        "name": "San Rafael del Sur",
        "place": "town",
        "population": "42417",
        "postal_code": "16700",
        "wikipedia": "es:San_Rafael_del_Sur"
      },
      "geometry": {
        "type": "Point",
        "coordinates": [
          -86.4388639,
          11.846482
        ]
      }
    },
    {
      "type": "Feature",
      "id": "node/2117609785",
      "properties": {
        "@id": "node/2117609785",
        "name": "San Pablo",
        "place": "village",
        "source": "NGA 50k topo map"
      },
      "geometry": {
        "type": "Point",
        "coordinates": [
          -86.4115886,
          11.8408006
        ]
      }
    },
    {
      "type": "Feature",
      "id": "node/2201382148",
      "properties": {
        "@id": "node/2201382148",
        "name": "La Selva",
        "place": "village"
      },
      "geometry": {
        "type": "Point",
        "coordinates": [
          -85.8686759,
          13.836869
        ]
      }
    },
    {
      "type": "Feature",
      "id": "node/2245863542",
      "properties": {
        "@id": "node/2245863542",
        "name": "La Trinidad",
        "place": "village"
      },
      "geometry": {
        "type": "Point",
        "coordinates": [
          -86.3327399,
          11.7363909
        ]
      }
    },
    {
      "type": "Feature",
      "id": "node/2245869279",
      "properties": {
        "@id": "node/2245869279",
        "name": "San Juan de la Sierra",
        "place": "village"
      },
      "geometry": {
        "type": "Point",
        "coordinates": [
          -86.3271287,
          11.7919963
        ]
      }
    },
    {
      "type": "Feature",
      "id": "node/2245870764",
      "properties": {
        "@id": "node/2245870764",
        "name": "Las Mercedes",
        "place": "village"
      },
      "geometry": {
        "type": "Point",
        "coordinates": [
          -86.3173547,
          11.7978146
        ]
      }
    },
    {
      "type": "Feature",
      "id": "node/2245871433",
      "properties": {
        "@id": "node/2245871433",
        "name": "El Aguacate",
        "place": "village"
      },
      "geometry": {
        "type": "Point",
        "coordinates": [
          -86.3129881,
          11.8084951
        ]
      }
    },
    {
      "type": "Feature",
      "id": "node/2245871438",
      "properties": {
        "@id": "node/2245871438",
        "name": "Sacate Verde",
        "place": "hamlet"
      },
      "geometry": {
        "type": "Point",
        "coordinates": [
          -86.3041261,
          11.8157622
        ]
      }
    },
    {
      "type": "Feature",
      "id": "node/2245873308",
      "properties": {
        "@id": "node/2245873308",
        "alt_name": "San Gregorio",
        "name": "San Gregorio de Las Cañas",
        "place": "village",
        "source": "NGA 50k topo map"
      },
      "geometry": {
        "type": "Point",
        "coordinates": [
          -86.3070121,
          11.8330577
        ]
      }
    },
    {
      "type": "Feature",
      "id": "node/2245873319",
      "properties": {
        "@id": "node/2245873319",
        "name": "Buena Vista del Norte",
        "place": "village"
      },
      "geometry": {
        "type": "Point",
        "coordinates": [
          -86.3309482,
          11.8137564
        ]
      }
    },
    {
      "type": "Feature",
      "id": "node/2245873626",
      "properties": {
        "@id": "node/2245873626",
        "name": "Los Baltodano",
        "place": "hamlet"
      },